City_ID,City,Lat,Lng,Max Temp,Humidity,Cloudiness,Wind Speed,Country,Date
0,asia,9.5506,122.5164,27.4,83,99,8.87,PH,1690323248
1,grytviken,-54.2811,-36.5092,-3.48,80,76,4.6,GS,1690323248
2,carahue,-38.7,-73.1667,8.03,94,56,2.03,CL,1690323248
3,brisas de zicatela,15.8369,-97.0419,31.29,55,75,3.09,MX,1690323249
4,saudarkrokur,65.7461,-19.6394,7.38,90,59,3.39,IS,1690323249
5,argo,37.6333,22.7333,30.04,30,0,2.05,GR,1690323249
6,afaahiti,-17.75,-149.2833,27.93,81,0,6.88,PF,1690323249
7,la passe,45.5549,-0.8967,17.77,74,85,4.47,FR,1690323250
8,buka,40.8108,69.1986,26.37,21,10,3.5,UZ,1690323250
9,port moresby,-9.4431,147.1797,20.68,100,40,1.54,PG,1690323250
10,hami,42.8,93.45,27.77,14,14,4.84,CN,1690323250
11,adamstown,-25.066,-130.1015,22.64,90,100,17.44,PN,1690323251
12,qaqortoq,60.7167,-46.0333,6.34,88,81,0.82,GL,1690323251
13,daru,-9.0763,143.2092,25.04,77,60,6.46,PG,1690323251
14,wailua homesteads,22.0669,-159.378,30.44,77,20,6.69,US,1690323251
15,st. john's,47.5649,-52.7093,18.29,86,73,2.85,CA,1690323003
16,albany,42.6001,-73.9662,26.25,57,95,1.97,US,1690323096
17,kruisfontein,-34.0033,24.7314,10.94,36,0,2.53,ZA,1690323252
18,bredasdorp,-34.5322,20.0403,7.35,75,0,1.54,ZA,1690323252
19,qarauyl,48.9451,79.255,17.77,56,39,2.53,KZ,1690323252
20,port-aux-francais,-49.35,70.2167,3.48,82,96,8.76,TF,1690323253
21,lata,40.1629,-8.3327,16.71,94,0,1.3,PT,1690323253
22,santa rosa misiones,-26.8667,-56.85,18.05,81,96,1.51,PY,1690323253
23,tiksi,71.6872,128.8694,5.62,73,64,1.37,RU,1690323253
24,tazacorte,28.629,-17.9293,23.54,85,0,5.14,ES,1690323253
25,puerto natales,-51.7236,-72.4875,-2.0,86,14,2.62,CL,1690323254
26,gananoque,44.3334,-76.1661,26.77,69,86,3.72,CA,1690323254
27,barabai,-2.5833,115.3833,21.95,91,21,0.85,ID,1690323259
28,ohara,35.25,140.3833,26.34,86,68,2.94,JP,1690323259
29,puerto ayora,-0.7393,-90.3518,29.98,89,40,3.13,EC,1690323259
30,longyearbyen,78.2186,15.6401,10.91,71,40,2.06,SJ,1690323260
31,duong dong,10.2167,103.9667,27.0,89,40,3.09,VN,1690323260
32,waitangi,-43.9535,-176.5597,9.9,98,100,0.89,NZ,1690323260
33,atafu village,-8.5421,-172.5159,29.11,71,11,8.71,TK,1690323261
34,avarua,-21.2078,-159.775,24.03,60,75,3.6,CK,1690323261
35,hermanus,-34.4187,19.2345,8.78,66,14,2.79,ZA,1690323261
36,bethel,41.3712,-73.414,21.2,83,100,0.0,US,1690323261
37,hamilton,39.1834,-84.5333,32.43,55,0,3.09,US,1690322980
38,thompson,55.7435,-97.8558,24.76,33,1,3.78,CA,1690323049
39,praia da vitoria,38.7333,-27.0667,22.14,88,40,4.11,PT,1690323262
40,yaren,-0.5472,166.916,28.24,79,86,5.1,NR,1690323262
41,klyuchi,52.2667,79.1667,17.56,59,1,2.44,RU,1690323262
42,invercargill,-46.4,168.35,6.23,82,71,4.05,NZ,1690323197
43,ushuaia,-54.8,-68.3,0.81,60,20,3.09,AR,1690323263
44,margaret river,-33.95,115.0667,11.88,83,100,8.63,AU,1690323076
45,blackmans bay,-43.0167,147.3167,12.07,70,100,5.41,AU,1690323263
46,campos dos goytacazes,-21.75,-41.3,23.03,88,75,7.2,BR,1690323245
47,ancud,-41.8697,-73.8203,8.51,88,6,4.51,CL,1690323264
48,hartsville,34.374,-80.0734,34.87,59,20,1.54,US,1690323127
49,oroqen zizhiqi,50.5667,123.7167,17.53,93,99,0.59,CN,1690323264
50,kodiak,57.79,-152.4072,15.73,72,0,3.09,US,1690323264
51,kolonia,50.9333,6.95,14.9,76,0,0.51,DE,1690323264
52,edinburgh of the seven seas,-37.0676,-12.3116,11.6,63,100,7.84,SH,1690323265
53,jijiga,9.35,42.8,18.25,71,96,9.85,ET,1690323265
54,sitka,57.0531,-135.33,16.94,72,100,3.6,US,1690323265
55,aasiaat,68.7098,-52.8699,3.72,91,89,2.5,GL,1690323265
56,qingdao,36.0986,120.3719,25.92,91,100,3.2,CN,1690323266
57,kill devil hills,36.0307,-75.676,29.99,72,0,3.6,US,1690323097
58,babu,24.4167,111.5167,25.6,92,62,0.51,CN,1690323266
59,santa terezinha,-29.9002,-50.0904,17.2,96,94,1.25,BR,1690323266
60,east london,-33.0153,27.9116,15.04,43,100,2.89,ZA,1690323266
61,sao gabriel da cachoeira,-0.1303,-67.0892,25.4,92,30,1.19,BR,1690323267
62,utrik,11.2278,169.8474,28.31,80,73,7.91,MH,1690323267
63,carnarvon,-24.8667,113.6333,16.82,58,38,7.11,AU,1690323267
64,yuzhno-kurilsk,44.0306,145.8556,19.71,95,41,1.39,RU,1690323267
65,floro,61.5996,5.0328,15.98,77,100,4.63,NO,1690323267
66,punta arenas,-53.15,-70.9167,-0.05,80,84,4.54,CL,1690323101
67,kenora,49.8167,-94.4337,25.54,57,100,4.12,CA,1690323228
68,tura,25.5198,90.2201,23.6,96,95,2.59,IN,1690323268
69,west island,-12.1568,96.8225,24.99,69,75,10.29,CC,1690323268
70,kismayo,-0.3582,42.5454,24.5,80,67,7.08,SO,1690323023
71,weno,7.4515,151.8468,26.97,89,100,2.06,FM,1690323269
72,sho'rchi,38.0141,67.7899,31.07,20,0,2.98,UZ,1690323269
73,pyin oo lwin,22.0333,96.4667,19.32,94,69,0.2,MM,1690323269
74,nagqu,31.5,92.0,5.6,94,100,1.29,CN,1690323269
75,kununurra,-15.7667,128.7333,9.99,71,30,0.0,AU,1690323269
76,fereydun kenar,36.6864,52.5225,26.11,78,93,7.34,IR,1690323270
77,moundou,8.5667,16.0833,24.19,85,82,0.91,TD,1690323270
78,egilsstadir,65.2653,-14.3948,7.03,92,100,2.09,IS,1690323270
79,kavaratti,10.5669,72.642,28.06,74,98,7.91,IN,1690323270
80,akrehamn,59.2667,5.1833,13.14,88,75,14.92,NO,1690323270
81,talnakh,69.4865,88.3972,14.56,70,0,0.44,RU,1690323271
82,port elizabeth,-33.918,25.5701,10.16,66,0,3.09,ZA,1690323272
83,plastun,44.7561,136.2939,24.5,76,31,1.78,RU,1690323272
84,iqaluit,63.7506,-68.5145,6.5,81,100,2.24,CA,1690323272
85,constantia,44.1833,28.65,24.38,69,75,9.22,RO,1690323272
86,minas de marcona,-15.2119,-75.1103,14.87,73,13,6.12,PE,1690323274
87,petropavlovsk-kamchatsky,53.0452,158.6483,17.33,82,0,3.0,RU,1690323274
88,taltal,-25.4,-70.4833,15.74,78,43,1.4,CL,1690323274
89,mentor-on-the-lake,41.705,-81.3604,29.73,74,0,1.54,US,1690323274
90,koyulhisar,40.3025,37.8311,14.12,92,7,0.77,TR,1690323275
91,yellowknife,62.456,-114.3525,25.31,22,75,10.29,CA,1690323204
92,hobyo,5.3505,48.5268,24.59,84,41,11.74,SO,1690323275
93,mili,6.0815,171.735,28.31,74,100,2.51,MH,1690323275
94,riviere-du-loup,47.8304,-69.5342,22.15,68,95,3.09,CA,1690323133
95,kingston,17.997,-76.7936,31.53,71,20,10.8,JM,1690323259
96,labrador city,52.9463,-66.9114,15.95,94,75,1.54,CA,1690323276
97,xinqing,48.2333,129.5,19.16,86,26,1.66,CN,1690323276
98,jamestown,42.097,-79.2353,25.4,73,20,1.54,US,1690323276
99,demopolis,32.5176,-87.8364,32.97,43,0,2.57,US,1690323002
100,papatowai,-46.5619,169.4708,5.65,82,61,4.72,NZ,1690323276
101,hawaiian paradise park,19.5933,-154.9731,27.24,83,100,3.6,US,1690323235
102,kiruna,67.8557,20.2251,11.51,94,75,1.03,SE,1690323277
103,mugia,43.1041,-9.2179,17.73,79,87,4.64,ES,1690323277
104,halifax,44.6453,-63.5724,25.94,74,12,8.23,CA,1690323222
105,nanao,37.05,136.9667,29.11,79,0,0.93,JP,1690323277
106,zaozersk,69.4005,32.4476,9.39,98,100,1.73,RU,1690323277
107,port lincoln,-34.7333,135.8667,10.45,72,0,3.68,AU,1690323278
108,ilulissat,69.2167,-51.1,3.01,100,100,2.06,GL,1690323278
109,kapuskasing,49.4169,-82.4331,27.05,41,40,6.69,CA,1690323278
110,banda aceh,5.5577,95.3222,26.61,76,94,5.93,ID,1690323150
111,tazovsky,67.4667,78.7,12.01,79,34,4.36,RU,1690323278
112,nemuro,43.3236,145.575,16.8,99,93,0.63,JP,1690323278
113,datong,40.0936,113.2914,21.83,61,32,2.02,CN,1690323279
114,nadi,-17.8,177.4167,23.0,83,75,1.54,FJ,1690322995
115,tiruchirappalli,10.8167,78.6833,27.06,74,75,6.69,IN,1690323236
116,georgetown,5.4112,100.3354,26.96,83,20,0.0,MY,1690323279
117,emerald,-23.5333,148.1667,12.97,77,0,7.12,AU,1690323279
118,tarawa,1.419,172.984,26.05,94,100,1.03,KI,1690323279
119,aldan,58.6031,125.3894,17.61,80,66,0.34,RU,1690323116
120,arzgir,45.3728,44.2206,24.11,52,0,2.39,RU,1690323280
121,ola,59.5833,151.2833,14.3,84,39,1.53,RU,1690323280
122,maintirano,-18.0667,44.0167,22.75,75,15,7.02,MG,1690323280
123,wynyard,-41.0,145.7167,11.51,80,100,4.21,AU,1690323280
124,nuuk,64.1835,-51.7216,12.34,58,20,5.66,GL,1690323280
125,ust-nera,64.5667,143.2,16.28,70,87,1.6,RU,1690323281
126,vilyuchinsk,52.9306,158.4028,18.15,73,51,0.69,RU,1690323281
127,carutapera,-1.195,-46.02,25.35,83,89,3.42,BR,1690323281
128,trairi,-3.2778,-39.2689,25.8,77,8,5.5,BR,1690323028
129,sao felix do xingu,-6.6447,-51.995,26.92,41,5,0.83,BR,1690323281
130,tolanaro,-25.0319,46.9987,17.96,65,66,2.87,MG,1690323281
131,stanley,54.868,-1.6985,12.62,93,75,2.06,GB,1690323282
132,itoman,26.1247,127.6694,29.01,87,75,5.66,JP,1690323282
133,newman,37.3138,-121.0208,36.13,8,1,1.07,US,1690323282
134,bannockburn,56.0898,-3.9109,13.95,86,87,1.69,GB,1690323282
135,dudinka,69.4058,86.1778,14.79,62,0,4.84,RU,1690323282
136,guozhen,34.3659,107.359,24.21,73,97,0.98,CN,1690323283
137,crane,31.3974,-102.3501,37.15,18,30,7.38,US,1690323283
138,opuwo,-18.0607,13.84,16.46,35,2,0.68,NA,1690323283
139,codrington,-38.2667,141.9667,6.03,93,99,3.33,AU,1690323283
140,loen,7.7601,168.2307,26.9,86,100,8.94,MH,1690323283
141,quellon,-43.1167,-73.6167,9.14,87,100,1.03,CL,1690323284
142,toliara,-23.35,43.6667,17.55,66,64,6.25,MG,1690323284
143,port alfred,-33.5906,26.891,15.27,58,100,3.86,ZA,1690323284
144,ribeira grande,38.5167,-28.7,20.99,79,7,3.13,PT,1690323284
145,inhambane,-23.865,35.3833,17.23,71,5,2.46,MZ,1690323284
146,namtsy,62.7161,129.6658,16.51,51,21,3.86,RU,1690323285
147,chiredzi,-21.05,31.6667,15.82,76,61,1.5,ZW,1690323285
148,rio grande,-32.035,-52.0986,16.06,91,100,7.08,BR,1690323285
149,freetown,8.484,-13.2299,24.53,91,100,2.45,SL,1690323285
150,tir pul,34.5943,61.269,29.49,13,0,4.22,AF,1690323286
151,nogliki,51.8333,143.1667,14.75,94,99,3.34,RU,1690323286
152,long,18.0761,99.8326,25.18,98,54,0.99,TH,1690323286
153,badger,64.8,-147.5333,26.93,55,75,5.14,US,1690323286
154,anadyr,64.75,177.4833,12.28,87,100,3.58,RU,1690323286
155,pemangkat,1.1667,108.9667,25.51,86,100,3.78,ID,1690323286
156,ambovombe,-25.1667,46.0833,18.07,56,38,4.19,MG,1690323287
157,mazabuka,-15.856,27.748,17.14,38,1,4.58,ZM,1690323287
158,sohna,28.25,77.0667,28.13,85,100,3.49,IN,1690323287
159,yanchep,-31.55,115.6833,11.64,78,95,6.61,AU,1690323287
160,port mathurin,-19.6833,63.4167,23.31,77,10,7.13,MU,1690323287
161,maceio,-9.6658,-35.7353,24.69,78,0,1.54,BR,1690323148
162,kudahuvadhoo,2.6708,72.8944,28.0,78,95,4.52,MV,1690323288
163,dalhart,36.0595,-102.5133,40.01,15,0,6.69,US,1690323288
164,bilibino,68.0546,166.4372,10.95,94,100,0.9,RU,1690323288
165,crestwood village,39.9482,-74.3607,24.77,75,40,2.57,US,1690323288
166,kourou,5.1552,-52.6478,28.03,81,60,3.65,GF,1690323288
167,karatau,43.1667,70.4667,26.15,23,0,3.15,KZ,1690323289
168,xining,36.6167,101.7667,14.21,72,99,1.18,CN,1690323289
169,lebu,-37.6167,-73.65,10.51,82,79,3.5,CL,1690323289
170,garissa,-0.4536,39.6401,23.17,72,34,8.03,KE,1690323289
171,cockburn town,21.4612,-71.1419,28.84,80,22,7.82,TC,1690323290
172,vyazniki,56.25,42.1667,16.89,91,95,2.71,RU,1690323290
173,chegdomyn,51.1167,133.0167,18.47,98,100,1.7,RU,1690323290
174,yoloten,37.2989,62.3597,30.65,12,0,4.46,TM,1690323290
175,touros,-5.1989,-35.4608,24.34,75,41,7.18,BR,1690323124
176,chonchi,-42.6128,-73.8092,8.56,95,75,1.9,CL,1690323291
177,port douglas,-16.4833,145.4667,21.87,85,96,7.22,AU,1690323291
178,'ain el turk,35.7438,-0.7693,26.5,64,0,3.6,DZ,1690323291
179,corumba,-19.0092,-57.6533,26.84,61,5,0.0,BR,1690323291
180,kirakira,-10.4544,161.9205,26.77,87,81,4.31,SB,1690323291
181,wloszczowa,50.8526,19.9659,18.0,85,81,3.02,PL,1690323292
182,udachny,66.4167,112.4,16.36,76,100,2.34,RU,1690323292
183,ceeldheer,3.8488,47.1806,24.38,82,61,8.59,SO,1690323292
184,maumere,-8.6199,122.2111,23.67,80,44,2.03,ID,1690323292
185,berriane,32.8265,3.7669,35.45,9,0,4.53,DZ,1690323293
186,carbonear,47.7332,-53.2148,20.91,86,72,1.92,CA,1690323293
187,bogale,16.2833,95.4,25.14,91,96,1.69,MM,1690323293
188,okhotsk,59.3833,143.3,15.44,82,100,3.04,RU,1690323293
189,afif,23.9065,42.9172,30.6,16,100,6.68,SA,1690323294
190,lihue,21.9789,-159.3672,30.77,69,20,6.69,US,1690323294
191,nuriootpa,-34.4833,139.0,8.05,84,0,3.28,AU,1690323294
192,hinatuan,8.3722,126.3342,26.24,78,100,2.62,PH,1690323294
193,katsuren-haebaru,26.3369,127.8719,29.01,86,75,5.66,JP,1690323294
194,paris,48.8534,2.3488,16.17,81,0,2.57,FR,1690322428
195,chefchaouene,35.1688,-5.2636,21.76,52,0,2.12,MA,1690323295
196,uturoa,-16.7333,-151.4333,26.82,80,9,5.87,PF,1690323295
197,college,64.8569,-147.8028,26.97,62,75,5.14,US,1690323295
198,nar'yan-mar,67.6713,53.087,14.07,83,17,3.27,RU,1690323295
199,colonia,50.9333,6.95,14.9,76,0,0.51,DE,1690323205
200,enewetak,11.3474,162.3373,28.53,77,58,7.15,MH,1690323296
201,quimili,-27.6333,-62.4167,14.44,70,97,1.71,AR,1690323296
202,mount gambier,-37.8333,140.7667,5.21,96,100,2.2,AU,1690323296
203,olonkinbyen,70.9221,-8.7187,5.44,85,100,3.71,SJ,1690323296
204,salalah,17.0151,54.0924,26.05,94,100,4.12,OM,1690323296
205,amahai,-3.3333,128.9167,26.67,84,78,2.9,ID,1690323297
206,ati,13.2154,18.3353,33.04,40,89,5.94,TD,1690323297
207,hilo,19.7297,-155.09,27.36,83,100,3.6,US,1690323207
208,whakatane,-37.9585,176.9854,10.84,82,93,1.79,NZ,1690323297
209,dunedin,-45.8742,170.5036,7.11,65,51,5.81,NZ,1690322998
210,woolgoolga,-30.1106,153.2007,14.47,71,62,5.11,AU,1690323298
211,pisco,-13.7,-76.2167,21.03,68,0,7.72,PE,1690323281
212,vorgashor,67.5833,63.95,15.39,84,100,3.21,RU,1690323298
213,pacific grove,36.6177,-121.9166,32.44,77,0,4.92,US,1690323298
214,aginskoye,51.1,114.53,16.79,77,50,0.87,RU,1690323299
215,caleta de carquin,-11.0925,-77.6267,20.84,77,19,6.16,PE,1690323299
216,borkum,53.5809,6.6915,14.97,72,90,7.87,DE,1690323299
217,natal,-5.795,-35.2094,24.36,78,0,5.14,BR,1690323283
218,ust'-kulom,61.6864,53.6902,11.37,98,59,1.23,RU,1690323299
219,shimoda,34.6667,138.95,30.61,75,10,1.82,JP,1690323299
220,susuman,62.7833,148.1667,14.76,78,100,1.27,RU,1690323300
221,baukau,51.5526,7.2042,14.16,72,28,2.68,DE,1690323300
222,labytnangi,66.6572,66.4183,16.23,92,100,4.61,RU,1690323300
223,coquimbo,-29.9533,-71.3436,15.85,82,0,3.6,CL,1690322900
224,queenstown,-31.8976,26.8753,9.84,18,100,2.41,ZA,1690323300
225,sisimiut,66.9395,-53.6735,7.69,80,67,4.99,GL,1690323301
226,diego martin,10.7005,-61.5342,28.49,68,45,2.75,TT,1690323301
227,kuta,-8.7233,115.1723,25.0,83,75,6.26,ID,1690323301
228,motueka,-41.1333,173.0167,7.28,63,51,3.35,NZ,1690323301
229,champerico,14.3,-91.9167,36.3,65,56,4.88,GT,1690323302
230,kenai,60.5544,-151.2583,17.05,84,100,4.12,US,1690323302
231,hovd,48.0056,91.6419,18.48,39,100,1.21,MN,1690323303
232,mbake,14.7903,-15.908,31.21,60,98,5.62,SN,1690323303
233,justo daract,-33.8594,-65.1828,12.13,59,91,5.17,AR,1690323303
234,dhulikhel,27.6189,85.5529,20.75,84,100,1.07,NP,1690323303
235,kapa'a,22.0752,-159.319,31.18,77,20,6.69,US,1690323304
236,wankyi,7.7392,-2.1046,22.32,97,70,1.66,GH,1690323304
237,gadzhiyevo,69.2551,33.3362,9.41,96,84,2.58,RU,1690323307
238,beyneu,45.3167,55.2,25.54,53,100,6.1,KZ,1690323311
239,esbjerg,55.4667,8.45,12.73,91,75,4.12,DK,1690323312
240,ilha de mocambique,-15.0342,40.7358,23.64,71,27,9.05,MZ,1690323312
241,iskateley,67.6803,53.1512,14.06,82,21,3.39,RU,1690323312
242,al artawiyah,26.5053,45.3444,33.32,10,81,4.58,SA,1690323312
243,arteche,12.2645,125.4048,26.47,80,100,4.61,PH,1690323313
244,port antonio,18.18,-76.4612,31.95,68,56,1.96,JM,1690323313
245,saint-philippe,-21.3585,55.7679,19.77,75,42,0.07,RE,1690323313
246,palikir - national government center,6.9248,158.1611,26.47,89,100,1.54,FM,1690323313
247,xinyuan,37.3,99.0,6.49,93,100,1.8,CN,1690323313
248,canavieiras,-15.675,-38.9472,21.51,91,70,1.64,BR,1690323314
249,vytegra,61.0064,36.4481,15.25,76,100,3.26,RU,1690323314
250,qui nhon,13.7667,109.2333,25.42,85,8,3.1,VN,1690323314
251,dawei,14.0833,98.2,24.14,96,100,0.68,MM,1690323314
252,molina,-35.1167,-71.2833,11.32,88,100,2.57,CL,1690323314
253,lom sak,16.7798,101.2422,23.94,100,40,0.0,TH,1690323315
254,vikhorevka,56.1201,101.1636,14.77,97,19,1.0,RU,1690323315
255,villa de cos,23.2833,-102.35,23.84,42,96,8.36,MX,1690323315
256,fayroz koh,34.5195,65.2509,18.04,34,23,0.94,AF,1690323315
257,longjiang,47.3303,123.1836,20.65,87,53,0.19,CN,1690323316
258,muisne,0.6,-80.0333,25.96,82,91,3.92,EC,1690323316
259,launceston,-41.45,147.1667,11.56,89,62,4.63,AU,1690323316
260,san antonio de pale,-1.4014,5.6325,22.77,89,37,4.55,GQ,1690323316
261,muana,-1.5283,-49.2167,28.45,62,67,2.64,BR,1690323316
262,timimoun,29.2639,0.231,39.21,6,0,4.12,DZ,1690323317
263,brigantine,39.4101,-74.3646,25.56,90,100,1.54,US,1690323059
264,mount isa,-20.7333,139.5,16.87,77,100,3.09,AU,1690323317
265,kuanda,56.3161,116.0806,19.4,72,12,0.48,RU,1690323318
266,villa de etla,17.2,-96.8,24.27,44,55,2.93,MX,1690323115
267,murghob,38.1702,73.9667,12.98,53,30,1.63,TJ,1690323318
268,jacmel,18.2342,-72.5347,31.91,64,96,1.69,HT,1690323318
269,onguday,50.75,86.15,11.56,95,7,0.45,RU,1690323318
270,malango,-2.9627,119.9001,16.7,95,27,1.33,ID,1690323319
271,kristiansund,63.1115,7.732,15.36,88,100,4.63,NO,1690323319
272,new norfolk,-42.7826,147.0587,13.27,73,100,4.16,AU,1690323319
273,necochea,-38.5473,-58.7368,8.1,85,100,3.26,AR,1690323319
274,lerwick,60.1545,-1.1494,11.0,75,100,9.07,GB,1690323320
275,paraiso,9.8383,-83.8656,24.4,79,100,2.18,CR,1690323320
276,isafjordur,66.0755,-23.124,7.55,80,95,3.73,IS,1690323320
277,valparaiso,-33.0393,-71.6273,15.0,81,75,5.14,CL,1690323320
278,vilyuysk,63.7553,121.6247,16.23,54,23,2.44,RU,1690323321
279,grand-lahou,5.1367,-5.0242,23.98,94,96,3.05,CI,1690323321
280,tindouf,27.6711,-8.1474,32.25,12,0,9.26,DZ,1690323321
281,pandan,14.0453,124.1694,27.68,82,100,7.67,PH,1690323322
282,fale old settlement,-9.3852,-171.2468,28.62,76,10,8.7,TK,1690323322
283,ixtapa,20.7,-105.2,30.57,66,75,3.09,MX,1690323322
284,motygino,58.1831,94.7592,16.64,99,98,0.89,RU,1690323322
285,sumbe,-11.2061,13.8437,19.58,91,50,2.59,AO,1690323322
286,remire-montjoly,4.9167,-52.2667,28.02,83,0,1.54,GF,1690323246
287,fonte boa,-2.4959,-66.2662,27.65,65,79,0.99,BR,1690323323
288,vernon,50.2581,-119.2691,24.96,31,74,1.03,CA,1690323244
289,cold springs,39.6802,-119.9766,35.77,8,0,8.23,US,1690323035
290,yatou,37.15,122.3833,25.14,91,99,3.23,CN,1690323324
291,suomussalmi,64.8869,28.9078,10.92,99,98,1.6,FI,1690323324
292,whitehorse,60.7161,-135.0538,20.43,52,75,1.54,CA,1690322538
293,papao,-17.75,-149.55,28.82,83,5,7.46,PF,1690323325
294,haiku-pauwela,20.9219,-156.3051,28.98,65,20,12.35,US,1690323325
295,la'ie,21.6477,-157.9253,30.98,70,57,6.99,US,1690323325
296,jabor,5.921,169.6434,28.13,75,89,1.68,MH,1690323325
297,fortuna,40.5982,-124.1573,23.29,71,36,4.63,US,1690323325
298,borjomi,41.8527,43.4128,16.52,96,70,0.97,GE,1690323325
299,sao vicente,-23.9631,-46.3919,26.82,26,40,1.05,BR,1690323326
300,farsan,32.2569,50.561,20.02,23,3,2.22,IR,1690323326
301,greymouth,-42.4667,171.2,6.91,82,31,2.29,NZ,1690323326
302,oriximina,-1.7656,-55.8661,28.9,47,57,1.53,BR,1690323326
303,prince rupert,54.3161,-130.3201,15.05,90,100,3.09,CA,1690323315
304,sultanah,24.4926,39.5857,36.25,9,0,2.06,SA,1690323327
305,flying fish cove,-10.4217,105.6791,23.82,94,100,4.12,CX,1690323327
306,hithadhoo,-0.6,73.0833,28.06,79,98,6.58,MV,1690323327
307,genhe,50.7833,121.5167,15.84,95,29,0.24,CN,1690323328
308,lakatoro,-16.0999,167.4164,23.15,79,100,7.88,VU,1690323328
309,nishon tumani,38.694,65.6751,27.14,36,0,0.0,UZ,1690323328
310,linxia chengguanzhen,35.6003,103.2064,17.0,68,96,1.58,CN,1690323328
311,fang,19.9169,99.2145,22.0,99,82,0.8,TH,1690323328
312,makassar,-5.14,119.4221,21.03,94,20,1.03,ID,1690323156
313,guiren,33.6697,118.1889,25.73,92,97,3.47,CN,1690323329
314,korhogo,9.45,-5.6333,23.95,89,98,1.97,CI,1690323329
315,cabo san lucas,22.8909,-109.9124,34.23,55,75,3.6,MX,1690322969
316,khandyga,62.6667,135.6,18.67,89,24,1.15,RU,1690323330
317,nanuque,-17.8392,-40.3539,20.49,95,86,2.15,BR,1690323330
318,la huacana,18.9667,-101.8167,30.82,60,84,0.55,MX,1690323330
319,nova sintra,14.8667,-24.7167,22.36,85,28,4.83,CV,1690323330
320,saipan,15.1355,145.701,29.39,100,40,5.14,MP,1690323186
321,buta,2.7858,24.73,20.93,100,94,0.83,CD,1690323331
322,chita,52.0333,113.55,11.94,100,100,1.0,RU,1690323229
323,ponta delgada,37.7333,-25.6667,21.4,83,75,1.03,PT,1690323331
324,laojunmiao,39.8333,97.7333,20.82,26,85,2.07,CN,1690323331
325,funafuti,-8.5243,179.1942,31.0,84,75,6.69,TV,1690323331
326,tambovka,50.0969,128.0489,20.26,81,81,2.12,RU,1690323332
327,tenno,39.9,139.9667,25.56,86,0,3.67,JP,1690323332
328,san mariano,7.5,126.0,22.75,89,90,1.61,PH,1690323332
329,albania,41.0,20.0,28.56,27,38,2.57,AL,1690323332
330,akureyri,65.6835,-18.0878,8.96,81,75,4.12,IS,1690323332
331,raton,36.9034,-104.4391,34.19,24,40,4.12,US,1690323333
332,bikenibeu village,1.3673,173.1241,25.98,94,100,1.03,KI,1690323333
333,verkhnevilyuysk,63.4453,120.3167,16.2,57,33,2.64,RU,1690323333
334,riohacha,11.5444,-72.9072,30.39,64,16,8.42,CO,1690323165
335,antsiranana,-12.2787,49.2917,21.91,82,84,5.55,MG,1690323333
336,saint-francois,46.4154,3.9054,13.69,88,0,1.54,FR,1690323138
337,fort st. john,56.2499,-120.8529,13.94,82,75,7.72,CA,1690323334
338,aberdeen,57.1437,-2.0981,11.27,82,75,2.57,GB,1690323334
339,buchanan,5.8808,-10.0467,24.48,89,97,1.79,LR,1690323334
340,siracusa,37.0881,15.2792,29.77,49,0,1.14,IT,1690323334
341,suksun,57.1431,57.3949,14.17,76,67,2.02,RU,1690323335
342,rehoboth,-23.3167,17.0833,14.17,35,0,3.25,NA,1690323335
343,kenitra,34.261,-6.5802,20.42,75,0,2.84,MA,1690323335
344,benoy,8.9833,16.3199,23.95,84,80,1.79,TD,1690323335
345,burao,9.5221,45.5336,24.03,49,28,11.45,SO,1690323332
346,skeldon,5.8833,-57.1333,25.81,89,50,2.23,GY,1690323336
347,sabzevar,36.2126,57.6819,29.18,15,0,2.36,IR,1690323336
348,manay,7.215,126.5397,26.09,79,96,4.55,PH,1690323336
349,kailua-kona,19.6406,-155.9956,29.6,81,40,4.12,US,1690323336
350,mata-utu,-13.2816,-176.1745,26.73,76,100,6.94,WF,1690323337
351,matthew town,20.95,-73.6667,30.13,70,91,6.7,BS,1690323337
352,san matias,-16.3667,-58.4,28.56,27,0,1.95,BO,1690323337
353,mogocha,53.7333,119.7667,15.51,94,26,0.14,RU,1690323337
354,palmer,42.1584,-72.3287,22.75,100,100,2.06,US,1690323337
355,ta`u,-14.2336,-169.5144,25.47,70,33,4.26,AS,1690323338
356,dompu,-8.5356,118.4622,20.62,97,8,1.07,ID,1690323338
357,santo antonio,-6.3106,-35.4789,21.49,84,100,4.39,BR,1690323338
358,blessington,53.17,-6.5325,14.51,86,40,3.6,IE,1690323338
359,miquelon,47.0975,-56.3814,21.0,93,99,3.21,PM,1690323338
360,biltine,14.5333,20.9167,31.9,38,81,5.64,TD,1690323339
361,cuatro cienegas de carranza,26.9833,-102.0833,36.15,21,1,8.89,MX,1690323339
362,fasa,28.9383,53.6482,29.58,42,75,2.06,IR,1690323339
363,kerrville,30.0474,-99.1403,38.08,31,75,3.6,US,1690323339
364,pasighat,28.0667,95.3333,25.22,89,93,0.93,IN,1690323339
365,port augusta,-32.5,137.7667,6.23,76,0,1.2,AU,1690323339
366,kupang,-10.1667,123.5833,21.7,80,32,5.73,ID,1690323340
367,baruun-urt,46.6806,113.2792,19.16,57,65,1.64,MN,1690323340
368,qamdo,31.1667,97.2333,4.23,89,100,0.67,CN,1690323340
369,peace river,56.2501,-117.286,15.17,94,100,6.69,CA,1690323340
370,muroto-misakicho,33.2833,134.15,26.85,79,28,1.95,JP,1690323341
371,las brenas,-27.0897,-61.0816,12.73,82,75,1.27,AR,1690323342
372,tungao,8.7772,125.5719,23.01,95,98,0.43,PH,1690323342
373,rotonda west,26.8837,-82.2901,33.88,82,5,4.02,US,1690323343
374,penzance,50.1186,-5.5371,14.31,79,95,1.76,GB,1690323343
375,la ronge,55.1001,-105.2842,24.14,41,75,6.69,CA,1690323343
376,ciudad lazaro cardenas,17.9583,-102.2,30.4,67,96,4.22,MX,1690323344
377,petatlan,17.5167,-101.2667,30.89,53,40,2.64,MX,1690323344
378,chinchilla,-26.75,150.6333,11.94,74,0,4.14,AU,1690323344
379,willowmore,-33.2926,23.4895,9.7,28,0,1.2,ZA,1690323344
380,zeya,53.75,127.2667,18.82,68,33,0.2,RU,1690323344
381,am timan,11.0297,20.2827,24.77,86,100,2.42,TD,1690323344
382,lospalos,-8.5186,127.0025,18.67,86,71,2.35,TL,1690323345
383,ulladulla,-35.35,150.4667,8.82,76,46,2.12,AU,1690323345
384,fada,9.5667,8.3,20.71,97,12,0.51,NG,1690323345
385,la sarre,48.8002,-79.1996,23.86,41,77,2.17,CA,1690323345
386,kasulu,-4.5767,30.1025,19.46,47,1,1.46,TZ,1690323345
387,uglegorsk,49.0833,142.0333,18.29,95,69,2.13,RU,1690323346
388,hiriyur,13.9456,76.6192,21.61,86,100,8.18,IN,1690323346
389,margate,51.3813,1.3862,17.05,69,77,2.24,GB,1690323346
390,peniche,39.3558,-9.3811,18.49,83,0,9.22,PT,1690323346
391,umba,66.6871,34.3429,8.81,98,50,1.46,RU,1690323346
392,nuku'alofa,-21.1333,-175.2,24.19,60,40,2.57,TO,1690323346
393,selfoss,63.9331,-20.9971,12.25,89,99,3.09,IS,1690323347
394,san luis de la loma,17.2706,-100.8939,31.58,61,70,2.74,MX,1690323347
395,esperanza,19.5847,-70.9849,30.32,46,97,5.88,DO,1690323347
396,bagaha,27.1,84.0833,27.17,79,100,1.8,IN,1690323347
397,saint-joseph,-21.3667,55.6167,19.21,73,23,0.68,RE,1690323347
398,lancaster,40.2504,-76.2499,27.7,68,20,0.89,US,1690323112
399,mingyue,43.1069,128.9217,22.33,86,100,1.04,CN,1690323348
400,yacimiento rio turbio,-51.5732,-72.3508,-7.34,89,21,2.67,AR,1690323348
401,al qadarif,14.0349,35.3834,27.14,66,95,5.08,SD,1690323348
402,kondopoga,62.2057,34.2614,9.83,94,80,1.25,RU,1690323348
403,coahuayana de hidalgo,18.7,-103.6583,30.62,66,85,2.24,MX,1690323349
404,debesy,57.6529,53.8049,13.27,98,62,2.34,RU,1690323349
405,monte carmelo,-18.7247,-47.4986,20.65,51,58,2.04,BR,1690323349
406,bathsheba,13.2167,-59.5167,26.34,94,20,1.03,BB,1690323349
407,palopo,-2.9996,120.1921,23.13,86,7,1.43,ID,1690323349
408,happy valley-goose bay,53.3168,-60.3315,20.17,77,75,0.0,CA,1690323315
409,al bayda',32.7627,21.7551,26.12,40,0,2.21,LY,1690323350
410,medicine hat,50.0501,-110.6683,29.24,21,75,10.29,CA,1690323326
411,guerrero negro,27.9769,-114.0611,26.82,51,30,7.31,MX,1690323350
412,turgen,43.4006,77.5933,20.07,30,0,3.64,KZ,1690323351
413,san patricio,28.017,-97.5169,36.76,39,13,8.0,US,1690323237
414,la cocha,-27.7773,-65.5704,15.36,59,39,2.06,AR,1690323089
415,anadarko,35.0726,-98.2437,40.45,13,72,7.04,US,1690323351
416,crucecita,-28.95,-58.9833,13.99,84,100,0.52,AR,1690323351
417,nantucket,41.2835,-70.0995,28.03,87,0,4.12,US,1690323073
418,northam,51.0333,-4.2167,13.14,89,16,2.1,GB,1690323352
419,mossel bay,-34.1831,22.146,13.02,69,1,2.0,ZA,1690323352
420,wiradesa,-6.8922,109.619,23.79,79,100,2.72,ID,1690323352
421,olinda,-8.0089,-34.8553,24.85,88,40,4.12,BR,1690323352
422,al burayqah,30.4062,19.5739,28.09,75,0,6.21,LY,1690323352
423,birzai,56.2,24.75,13.1,93,55,2.74,LT,1690323352
424,columbia falls,48.3725,-114.1815,27.73,24,0,5.14,US,1690323353
425,khalis,33.82,44.5264,35.01,16,0,4.3,IQ,1690323353
426,gelendost,38.1208,31.0153,22.01,30,0,2.35,TR,1690323353
427,tekirdag,40.978,27.5085,24.64,61,0,2.88,TR,1690323353
428,crossett,33.1282,-91.9612,34.99,26,2,3.44,US,1690323353
429,beau vallon,-20.4189,57.6953,21.23,94,40,2.06,MU,1690323353
430,kpandu,6.9954,0.2931,24.21,90,23,3.12,GH,1690323354
431,lorengau,-2.0226,147.2712,26.75,84,100,7.43,PG,1690323354
432,jiangzi,28.95,89.6333,8.8,64,100,2.07,CN,1690323354
433,kyren,51.6828,102.1408,12.95,85,75,0.62,RU,1690323141
434,vera,-29.4593,-60.2126,12.75,85,96,0.71,AR,1690323354
435,vegreville,53.5001,-112.0518,21.17,52,100,8.75,CA,1690323355
436,waimanalo,21.35,-157.7208,30.95,58,20,5.66,US,1690323355
437,castillos,-34.1667,-53.8333,12.02,93,100,3.18,UY,1690323355
438,kerikeri,-35.2268,173.9474,12.73,78,5,3.58,NZ,1690323355
439,bom jesus,-9.0744,-44.3586,25.43,30,2,2.07,BR,1690323355
440,ouadda,8.0777,22.4007,20.77,99,100,0.96,CF,1690323356
441,hasaki,35.7333,140.8333,28.22,85,81,3.83,JP,1690323356
442,tafuna,-14.3358,-170.72,27.97,74,40,3.09,AS,1690323356
443,knyaze-volkonskoye,48.4642,135.4567,23.19,89,82,3.37,RU,1690323356
444,borovichi,58.3878,33.9155,15.37,99,88,2.21,RU,1690323356
445,roma,43.2128,-75.4557,26.99,64,0,3.09,US,1690323215
446,myshkin,57.7897,38.4545,15.51,88,100,3.06,RU,1690323357
447,beitbridge,-22.2167,30.0,17.99,73,100,3.77,ZW,1690323357
448,arraial do cabo,-22.9661,-42.0278,21.98,88,0,7.72,BR,1690323357
449,ulan bator,47.9077,106.8832,13.07,82,20,2.0,MN,1690323358
450,mejit,10.2753,170.8646,28.2,81,60,8.2,MH,1690323358
451,dhidhdhoo,6.8833,73.1,27.59,81,100,4.59,MV,1690323358
452,rio gallegos,-51.6226,-69.2181,-8.97,100,0,3.6,AR,1690323358
453,nadym,65.5333,72.5167,18.46,81,99,4.86,RU,1690323358
454,san juan,-31.5375,-68.5364,15.53,30,4,4.39,AR,1690323241
455,malvan,16.0667,73.4667,25.48,89,100,8.1,IN,1690323359
456,zhaoyuan,37.3592,120.3964,25.23,91,100,2.03,CN,1690323359
457,robit,12.0167,39.6333,21.57,62,100,3.63,ET,1690323359
458,vredendal,-31.6683,18.5012,18.02,31,93,3.58,ZA,1690323359
459,puerto baquerizo moreno,-0.9,-89.6,26.55,78,20,4.63,EC,1690323360
460,salinas de hidalgo,22.6333,-101.7167,20.87,55,80,8.88,MX,1690323360
461,howard springs,-12.497,131.047,15.95,53,9,3.07,AU,1690323360
462,l'alcora,40.0667,-0.2,25.12,59,5,2.03,ES,1690323360
463,smithers,54.7804,-127.1743,16.18,77,75,3.09,CA,1690323361
464,salekhard,66.53,66.6019,16.01,93,100,4.23,RU,1690323361
465,sao jose da coroa grande,-8.8978,-35.1478,23.77,83,78,3.48,BR,1690323361
466,seven pagodas,12.6264,80.1722,26.14,67,100,6.09,IN,1690323361
467,bayanaul,50.7889,75.6956,17.38,48,54,1.53,KZ,1690323361
468,mohammedia,33.7066,-7.3944,21.96,100,0,2.06,MA,1690323362
469,bardai,11.65,7.2333,24.21,79,86,3.78,NG,1690323362
470,mana,5.6592,-53.7767,26.59,85,38,4.33,GF,1690323362
471,qujing,25.4833,103.7833,16.07,93,80,1.85,CN,1690323228
472,buarcos,40.166,-8.8768,17.19,84,0,7.52,PT,1690323363
473,simanggang,1.2472,111.4528,23.99,94,52,0.0,MY,1690323363
474,basco,20.4487,121.9702,28.97,86,100,24.75,PH,1690323363
475,querecotillo,-4.8378,-80.6456,29.88,45,70,7.57,PE,1690323364
476,midvagur,62.0511,-7.1939,9.46,87,100,3.09,FO,1690323364
477,presidencia roque saenz pena,-26.7852,-60.4388,14.31,83,100,1.48,AR,1690323364
478,puerto armuelles,8.2833,-82.8667,28.99,70,98,1.34,PA,1690323365
479,ticul,20.4,-89.5333,39.25,21,98,3.11,MX,1690323365
480,chardara,41.2547,67.9692,27.57,24,0,5.19,KZ,1690323365
481,wellington,-41.2866,174.7756,7.81,91,100,18.01,NZ,1690322807
482,harper,4.375,-7.7169,24.81,85,100,3.84,LR,1690323366
483,tanumah,27.1,44.1333,33.93,9,100,3.67,SA,1690323366
484,tegueste,28.5167,-16.3167,19.81,86,40,8.05,ES,1690323366
485,pascagoula,30.3658,-88.5561,34.4,55,0,2.06,US,1690323367
486,sur,22.5667,59.5289,29.79,70,100,2.57,OM,1690323367
487,gornyak,50.9942,81.4661,15.34,64,0,1.54,RU,1690323367
488,inari,68.906,27.0288,11.11,96,100,1.8,FI,1690323367
489,kingscliff,-28.2667,153.5667,17.09,77,100,3.6,AU,1690323368
490,puerto carreno,6.189,-67.4859,26.35,86,57,4.68,CO,1690323368
491,luderitz,-26.6481,15.1594,12.15,93,51,3.25,NA,1690323368
492,yuanping,38.7153,112.7575,20.36,79,9,0.29,CN,1690323368
493,mutum biyu,8.6333,10.7667,25.49,78,100,1.91,NG,1690323368
494,sete lagoas,-19.4658,-44.2467,21.49,51,1,3.49,BR,1690323105
495,abadan,30.3392,48.3043,38.39,9,5,4.46,IR,1690323184
496,pecos,31.4229,-103.4932,39.46,13,0,6.17,US,1690323305
497,goundam,16.4145,-3.6708,32.55,41,49,1.69,ML,1690323369
498,urzhar,47.093,81.6294,22.87,37,61,3.77,KZ,1690323369
499,san carlos,9.6612,-68.5827,27.55,89,86,1.15,VE,1690323369
500,souillac,-20.5167,57.5167,20.21,94,40,2.06,MU,1690323370
501,callao,-12.0667,-77.15,20.4,73,100,6.17,PE,1690323128
502,zheleznogorsk-ilimskiy,56.5768,104.1217,15.04,95,99,0.81,RU,1690323370
503,guaimaro,21.05,-77.35,29.35,72,76,6.43,CU,1690323370
504,ad dawadimi,24.5077,44.3924,30.64,12,98,5.47,SA,1690323370
505,clarksdale,34.2001,-90.5709,32.99,52,0,3.6,US,1690323371
506,viqueque,-8.8673,126.3658,20.34,84,68,1.4,TL,1690323371
507,alofi,-19.0595,-169.9187,23.94,64,34,2.06,NU,1690323371
508,saiha,22.4833,92.9667,21.92,98,95,1.08,IN,1690323371
509,terbuny,52.1389,38.2789,21.31,52,100,6.27,RU,1690323372
510,mithi,24.7318,69.7981,28.35,82,31,5.69,PK,1690323372
511,villa bruzual,9.3328,-69.1208,26.95,91,70,1.69,VE,1690323372
512,acajutla,13.5928,-89.8275,31.38,60,61,3.07,SV,1690323372
513,mikhaylov,54.2292,39.0186,17.51,94,100,4.2,RU,1690323373
514,chengde,40.9725,117.9361,21.44,87,15,0.33,CN,1690323373
515,puerto aysen,-45.4,-72.7,4.88,100,99,1.23,CL,1690323373
516,puerto leguizamo,-0.1934,-74.7819,26.66,77,80,1.53,CO,1690323373
517,thatta,24.7475,67.9235,28.88,77,5,3.97,PK,1690323373
518,shenkursk,62.1091,42.896,13.86,77,75,1.93,RU,1690323374
519,kone,-21.0595,164.8658,21.11,56,35,4.37,NC,1690323374
520,manicore,-5.8092,-61.3003,29.21,43,1,0.87,BR,1690323374
521,lahat,-3.8,103.5333,22.68,91,79,0.77,ID,1690323374
522,seeb,23.6703,58.1891,29.05,89,40,7.2,OM,1690323375
523,kati,12.7441,-8.0726,24.67,83,100,2.21,ML,1690323375
524,keflavik,64.0049,-22.5624,13.95,76,100,3.6,IS,1690323375
525,timmins,48.4669,-81.3331,24.9,44,75,1.03,CA,1690323375
526,coruripe,-10.1256,-36.1756,22.83,86,50,3.79,BR,1690323375
527,el charco,2.4769,-78.1105,27.0,87,99,3.34,CO,1690323375
528,ribeira brava,32.65,-17.0667,23.17,85,60,1.58,PT,1690323376
529,tostado,-29.232,-61.7692,12.77,76,100,1.17,AR,1690323376
530,urucara,-2.5364,-57.76,28.86,46,5,1.18,BR,1690323376
531,aioun,16.6614,-9.6149,35.37,37,67,6.86,MR,1690323377
532,namibe,-15.1961,12.1522,16.55,84,88,4.11,AO,1690323377
533,malanje,-9.5402,16.341,19.77,49,3,2.44,AO,1690323377
534,brookings,44.3114,-96.7984,33.99,59,20,7.2,US,1690323210
535,gorom-gorom,14.4439,-0.2361,33.8,41,10,2.07,BF,1690323377
536,nangomba,-10.9,38.5,19.13,73,37,1.43,TZ,1690323377
537,abu jibeha,11.4562,31.2285,24.91,77,94,0.46,SD,1690323378
538,patacamaya,-17.2333,-67.9167,12.28,13,0,6.69,BO,1690323378
539,black river,18.0264,-77.8487,29.39,70,92,1.44,JM,1690323378
540,taoudenni,22.6783,-3.9836,41.39,10,73,4.16,ML,1690323378
541,soanierana ivongo,-16.9167,49.5833,19.51,94,37,1.82,MG,1690323379
542,seydi,39.4816,62.9137,32.53,17,0,4.79,TM,1690323379
543,masuguru,-11.3667,38.4167,20.84,66,51,2.05,TZ,1690323379
544,east ballina,-28.8667,153.5833,12.67,78,87,3.34,AU,1690323379
545,nema,57.5067,50.5011,12.99,97,20,1.24,RU,1690323379
546,polyarnyy,69.1989,33.4478,9.44,96,80,2.62,RU,1690323380
547,cobija,-11.0267,-68.7692,33.1,49,20,3.09,BO,1690323380
548,kamenka,51.3223,42.7678,18.65,67,99,3.24,RU,1690323380
549,zarah sharan,33.1467,68.7917,21.0,64,8,0.15,AF,1690323380
550,holualoa,19.6228,-155.9522,26.54,80,40,4.12,US,1690323380
551,oodweyne,9.4092,45.064,24.05,49,44,9.69,SO,1690323381
552,yanjiang,30.1211,104.6481,24.1,94,99,1.09,CN,1690323381
553,virpur,23.1833,73.4833,26.69,88,100,3.94,IN,1690323381
554,siyabuswa,-25.1132,29.0445,12.84,80,61,2.95,ZA,1690323381
555,yamada,39.4667,141.95,27.06,72,3,1.27,JP,1690323382
556,ishigaki,24.3448,124.1572,29.07,84,20,9.26,JP,1690323382
557,lido di ostia,41.7321,12.2765,26.43,55,0,7.72,IT,1690323382
558,general acha,-37.377,-64.6043,10.22,62,47,4.33,AR,1690323382
559,pingyin,36.2831,116.4453,24.87,85,0,2.55,CN,1690323382
560,suining,30.508,105.5733,24.62,94,71,1.16,CN,1690323383
561,hajjah,15.6943,43.6058,25.33,36,100,0.22,YE,1690323383
562,diebougou,10.9667,-3.25,24.7,83,11,2.15,BF,1690323383
563,pazarcik,37.4869,37.2996,26.11,40,0,2.42,TR,1690323383
564,yeppoon,-23.1333,150.7333,20.14,71,6,8.09,AU,1690323383
565,hadibu,12.65,54.0333,25.06,78,67,10.71,YE,1690323384
566,mirny,62.5353,113.9611,19.02,72,70,3.13,RU,1690323384
567,figeac,44.75,1.9167,13.21,77,56,1.85,FR,1690323384
